<?xml version="1.0"?>
<gpx version="1.1" creator="GDAL 3.12.0" xmlns:xsi="http://www.w3.org/2001/XMLSchema-instance" xmlns:ogr="http://osgeo.org/gdal" xmlns="http://www.topografix.com/GPX/1/1" xsi:schemaLocation="http://www.topografix.com/GPX/1/1 http://www.topografix.com/GPX/1/1/gpx.xsd">
<metadata>
<bounds minlat="67.068667576649602" minlon="16.802812378638009" maxlat="68.358625000123922" maxlon="18.784671991320852"/>                                       
</metadata>
<wpt lat="67.068667576649602" lon="17.158538321992413">
  <name>Såmmarlappa</name>
  <extensions>
    <ogr:fid>8.0</ogr:fid>
    <ogr:Description>Butik - https://www.svenskaturistforeningen.se/boende/stf-sammarlappa-fjallstuga/</ogr:Description>
  </extensions>
</wpt>
<wpt lat="67.192478004693839" lon="17.121554058371792">
  <name>Darreluoppal</name>
  <extensions>
    <ogr:fid>9.0</ogr:fid>
    <ogr:Description>Butik - https://padjelanta.com/stugor/darreluoppal/</ogr:Description>
  </extensions>
</wpt>
<wpt lat="67.268482860305909" lon="17.032237198624436">
  <name>Duottar</name>
  <extensions>
    <ogr:fid>10.0</ogr:fid>
    <ogr:Description>Butik - https://padjelanta.com/stugor/darreluoppal/</ogr:Description>
  </extensions>
</wpt>
<wpt lat="67.373249078865001" lon="16.802812378638009">
  <name>Árasluokta</name>
  <extensions>
    <ogr:fid>11.0</ogr:fid>
    <ogr:Description>Butik - https://padjelanta.com/stugor/arasluokta/</ogr:Description>
  </extensions>
</wpt>
<wpt lat="67.463296586357643" lon="16.905818779516924">
  <name>Låddejåhkå</name>
  <extensions>
    <ogr:fid>12.0</ogr:fid>
    <ogr:Description>Butik - https://padjelanta.com/stugor/laddejahka/</ogr:Description>
  </extensions>
</wpt>
<wpt lat="67.559128492064033" lon="17.200425576910643">
  <name>Gisuris</name>
  <extensions>
    <ogr:fid>13.0</ogr:fid>
    <ogr:Description>Butik - https://padjelanta.com/stugor/gisuris/</ogr:Description>
  </extensions>
</wpt>
<wpt lat="67.723192394039444" lon="17.4645925897795">
  <name>Ritsem</name>
  <extensions>
    <ogr:fid>14.0</ogr:fid>
    <ogr:Description>Butik - https://www.swedishtouristassociation.com/facilities/stf-ritsem/</ogr:Description>
  </extensions>
</wpt>
<wpt lat="67.946415233144592" lon="18.28284193165311">
  <name>Sälka</name>
  <extensions>
    <ogr:fid>15.0</ogr:fid>
    <ogr:Description>Butik - https://www.svenskaturistforeningen.se/boende/stf-salka-fjallstuga/</ogr:Description>
  </extensions>
</wpt>
<wpt lat="68.13715152412891" lon="18.414144471940862">
  <name>Alesjaure</name>
  <extensions>
    <ogr:fid>16.0</ogr:fid>
    <ogr:Description>https://www.svenskaturistforeningen.se/boende/stf-alesjaure-fjallstuga/</ogr:Description>
  </extensions>
</wpt>
<wpt lat="68.286183887013991" lon="18.590541538945416">
  <name>Abiskojaure</name>
  <extensions>
    <ogr:fid>17.0</ogr:fid>
    <ogr:Description>Butik - https://www.svenskaturistforeningen.se/boende/stf-abiskojaure-fjallstuga/</ogr:Description>
  </extensions>
</wpt>
<wpt lat="68.358625000123922" lon="18.784671991320852">
  <name>Abisko</name>
  <extensions>
    <ogr:fid>18.0</ogr:fid>
    <ogr:Description>Fjällstation - https://www.svenskaturistforeningen.se/boende/stf-abisko-turiststation/</ogr:Description>
  </extensions>
</wpt>
</gpx>
