<?xml version="1.0"?>
<gpx version="1.1" creator="GDAL 3.12.0" xmlns:xsi="http://www.w3.org/2001/XMLSchema-instance" xmlns:ogr="http://osgeo.org/gdal" xmlns="http://www.topografix.com/GPX/1/1" xsi:schemaLocation="http://www.topografix.com/GPX/1/1 http://www.topografix.com/GPX/1/1/gpx.xsd">
<metadata>
<bounds minlat="63.318845184325234" minlon="11.941102399558147" maxlat="64.223328073309133" maxlon="13.836257720849130"/>                                       
</metadata>
<wpt lat="63.318845184325234" lon="12.086481404232662">
  <name>Storlien</name>
  <extensions>
    <ogr:fid>8.0</ogr:fid>
    <ogr:Description>Supermercato - https://www.google.com/search?client=safari&amp;rls=en&amp;q=storlien+aff%C3%A4rer&amp;ie=UTF-8&amp;oe=UTF-8&amp;channel=31#vhid=/g/11hhs5yy48&amp;vssid=lcl</ogr:Description>
  </extensions>
</wpt>
<wpt lat="63.463033243321711" lon="12.059005449527408">
  <name>Angeltjønnhytta</name>
  <extensions>
    <ogr:fid>9.0</ogr:fid>
    <ogr:Description>Self-service hut: https://hyttebestilling.dnt.no/hytte/10483 </ogr:Description>
  </extensions>
</wpt>
<wpt lat="63.6828396029657" lon="12.261302521338166">
  <name>Bellingstua</name>
  <extensions>
    <ogr:fid>11.0</ogr:fid>
    <ogr:Description>Self service hut - https://hyttebestilling.dnt.no/hytte/101367</ogr:Description>
  </extensions>
</wpt>
<wpt lat="63.542061034166672" lon="11.941102399558147">
  <name>Fersilia</name>
  <extensions>
    <ogr:fid>12.0</ogr:fid>
    <ogr:Description>Self-service hut:https://hyttebestilling.dnt.no/kart?type=cabin&amp;value=10468#9.97/63.5191/11.9627 </ogr:Description>
  </extensions>
</wpt>
<wpt lat="63.595510661345145" lon="12.050167970763304">
  <name>Sulsjøhytta</name>
  <extensions>
    <ogr:fid>13.0</ogr:fid>
    <ogr:Description>Self-service hut: https://hyttebestilling.dnt.no/kart?type=cabin&amp;value=101175709#11.19/63.5638/12.0287</ogr:Description>
  </extensions>
</wpt>
<wpt lat="63.784157323743202" lon="12.384387814225503">
  <name>Veresstua</name>
  <extensions>
    <ogr:fid>14.0</ogr:fid>
    <ogr:Description>Self-service hut: https://hyttebestilling.dnt.no/kart?type=cabin&amp;value=101291#9.71/63.7485/12.3514</ogr:Description>
  </extensions>
</wpt>
<wpt lat="64.063388654812627" lon="12.894508433799041">
  <name>Holden Fjellgård</name>
  <extensions>
    <ogr:fid>15.0</ogr:fid>
    <ogr:Description>Self-service hut - https://hyttebestilling.dnt.no/kart?type=cabin&amp;value=10250#9.26/64.0065/12.9903</ogr:Description>
  </extensions>
</wpt>
<wpt lat="64.104057195715725" lon="13.083666955395255">
  <name>Gjeftsoen Fjellgård</name>
  <extensions>
    <ogr:fid>16.0</ogr:fid>
    <ogr:Description>https://gjefsjo.no/en/contact/</ogr:Description>
  </extensions>
</wpt>
<wpt lat="64.223328073309133" lon="13.83625772084913">
  <name>Sorli</name>
  <extensions>
    <ogr:fid>17.0</ogr:fid>
    <ogr:Description>Supermercato - https://share.google/GQqJaC25QNFEtIygc</ogr:Description>
  </extensions>
</wpt>
<wpt lat="64.017497360312362" lon="12.681326655302115">
  <name>Gaundalen</name>
  <extensions>
    <ogr:fid>18.0</ogr:fid>
    <ogr:Description>Serviced hut - https://ut.no/hytte/10274/gaundalen-fjellgard</ogr:Description>
  </extensions>
</wpt>
</gpx>
