<?xml version="1.0"?>
<gpx version="1.1" creator="GDAL 3.12.0" xmlns:xsi="http://www.w3.org/2001/XMLSchema-instance" xmlns:ogr="http://osgeo.org/gdal" xmlns="http://www.topografix.com/GPX/1/1" xsi:schemaLocation="http://www.topografix.com/GPX/1/1 http://www.topografix.com/GPX/1/1/gpx.xsd">
<metadata>
<bounds minlat="64.819008939212011" minlon="14.242573256870491" maxlat="65.817711817266101" maxlon="15.090550694022227"/>                                       
</metadata>
<wpt lat="64.819008939212011" lon="14.242573256870491">
  <name>Ankarede</name>
  <extensions>
    <ogr:fid>8.0</ogr:fid>
    <ogr:Description>Restaurant - Kafe</ogr:Description>
  </extensions>
</wpt>
<wpt lat="65.06313485962896" lon="14.79973946457403">
  <name>Klimpfjäll</name>
  <extensions>
    <ogr:fid>9.0</ogr:fid>
    <ogr:Description>Supermercato - Ombud  - https://www.handlarn.se/butiker/klimpfjall/ </ogr:Description>
  </extensions>
</wpt>
<wpt lat="65.422047815035583" lon="14.813323226507539">
  <name>Gränssjö</name>
  <extensions>
    <ogr:fid>10.0</ogr:fid>
    <ogr:Description>Campeggio - pacco https://granssjoarna.se/camping </ogr:Description>
  </extensions>
</wpt>
<wpt lat="65.710659064443561" lon="14.611354196282688">
  <name>JoeSjö</name>
  <extensions>
    <ogr:fid>11.0</ogr:fid>
    <ogr:Description>Negozio - https://boka.hemavan.nu/tarna-vilt</ogr:Description>
  </extensions>
</wpt>
<wpt lat="65.817711817266101" lon="15.090550694022227">
  <name>Hemavan</name>
  <extensions>
    <ogr:fid>12.0</ogr:fid>
    <ogr:Description>Supermercato - https://www.ica.se/butiker/nara/hemavan/</ogr:Description>
  </extensions>
</wpt>
<wpt lat="65.710659064443561" lon="14.611354196282688">
  <name>Joesjö</name>
  <extensions>
    <ogr:fid>13.0</ogr:fid>
    <ogr:Description>Negozio - https://boka.hemavan.nu/tarna-vilt</ogr:Description>
  </extensions>
</wpt>
</gpx>
